{
"type": "FeatureCollection",
"crs": { "type": "name", "properties": { "name": "urn:ogc:def:crs:OGC:1.3:CRS84" } },                                                                               
"features": [
{ "type": "Feature", "properties": { "NAME": "Wolfsonian Museum", "TEL": "", "URL": "http://www.wolfsonian.org/", "ADDRESS1": "", "ADDRESS2": "1001 Washington Avenue", "CITY": "Miami Beach", "ZIP":33139 }, "geometry": { "type": "Point", "coordinates": [ -80.13246, 25.780930 ] } },
{ "type": "Feature", "properties": { "NAME": "World Erotic Art Museum", "TEL": "", "URL": "http://weam.com/", "ADDRESS1": "", "ADDRESS2": "1205 Washington Avenue", "CITY": "Miami Beach", "ZIP":33139 }, "geometry": { "type": "Point", "coordinates": [ -80.132091, 25.783279 ] } },
{ "type": "Feature", "properties": { "NAME": "Jewish Museum of Florida", "TEL": "", "URL": "http://jmof.fiu.edu/", "ADDRESS1": "", "ADDRESS2": "301 Washington Avenue", "CITY": "Miami Beach", "ZIP":33139 }, "geometry": { "type": "Point", "coordinates": [ -80.134237, 25.772495 ] } },
{ "type": "Feature", "properties": { "NAME": "Perez Art Museum Miami", "TEL": "305.375.3000", "URL": "http://www.PAMM.org", "ADDRESS1": "1103 Biscayne Boulevard", "ADDRESS2": null, "CITY": "Miami", "ZIP": 33132 }, "geometry": { "type": "Point", "coordinates": [ -80.186200, 25.785928 ] } },
{ "type": "Feature", "properties": { "NAME": "MDC Museum Art + Design", "TEL": "305.237.7700", "URL": "http://www.MDCMOAD.org", "ADDRESS1": "600 Biscayne Boulevard", "ADDRESS2": null, "CITY": "Miami", "ZIP": 33132 }, "geometry": { "type": "Point", "coordinates": [ -80.189675, 25.780306 ] } },
{ "type": "Feature", "properties": { "NAME": "History Miami Museum", "TEL": "305.375.1492", "URL": "http://www.historymiami.org", "ADDRESS1": "101 West Flagler Street", "ADDRESS2": null, "CITY": "Miami", "ZIP": 33130 }, "geometry": { "type": "Point", "coordinates": [ -80.196287, 25.774537 ] } },
{ "type": "Feature", "properties": { "NAME": "Museum of Contemporary Art", "TEL": "305.893.6211", "URL": "http://mocanomi.org/", "ADDRESS1": "770 NE 125 Street", "ADDRESS2": null, "CITY": "Miami", "ZIP": 33161 }, "geometry": { "type": "Point", "coordinates": [ -80.182965, 25.889711 ] } }
]
}