{
"type": "FeatureCollection",
"crs": { "type": "name", "properties": { "name": "urn:ogc:def:crs:OGC:1.3:CRS84" } },
"features": [
{ "type": "Feature", "properties": { "NAME": "Nobu", "TEL": "305.695.3232", "URL": "http://www.noburestaurants.com/miami/experience/introduction/", "ADDRESS1": "4525 Collins Avenue", "ADDRESS2": null, "CITY": "Miami Beach", "ZIP": 33140 }, "geometry": { "type": "Point", "coordinates": [ -80.121763, 25.819461 ] } },	
{ "type": "Feature", "properties": { "NAME": "Mr. Chow", "TEL": "305.695.1695", "URL": "mrchow.com", "ADDRESS1": "2201 Collins Avenue", "ADDRESS2": null, "CITY": "Miami Beach", "ZIP": 33139 }, "geometry": { "type": "Point", "coordinates": [ 25.797742, -80.12748 ] } },	
{ "type": "Feature", "properties": { "NAME": "Prime 112", "TEL": "305.532.8112", "URL": "http://mylesrestaurantgroup.com/", "ADDRESS1": "112 Ocean Drive", "ADDRESS2": null, "CITY": "Miami Beach", "ZIP": 33139 }, "geometry": { "type": "Point", "coordinates": [ -80.133267, 25.769920 ] } },	
{ "type": "Feature", "properties": { "NAME": "Red", "TEL": "305.534.3688", "URL": "redthesteakhouse.com", "ADDRESS1": "119 Washington Avenue", "ADDRESS2": null, "CITY": "Miami Beach", "ZIP": 33139 }, "geometry": { "type": "Point", "coordinates": [ -80.134703, 25.770446 ] } },	
{ "type": "Feature", "properties": { "NAME": "Havana 1957", "TEL": "305.503.3828", "URL": "havana1957.com", "ADDRESS1": "405 Espa√±ola Way", "ADDRESS2": null, "CITY": "Miami Beach", "ZIP": 33139 }, "geometry": { "type": "Point", "coordinates": [ -80.132043, 25.787083 ] } },	
{ "type": "Feature", "properties": { "NAME": "Barton G", "TEL": "305.672.8881", "URL": "bartongtherestaurant.com", "ADDRESS1": "1427 West Avenue", "ADDRESS2": null, "CITY": "Miami Beach", "ZIP": 33139 }, "geometry": { "type": "Point", "coordinates": [  -80.142029, 25.786163 ] } },	
{ "type": "Feature", "properties": { "NAME": "Smith & Wollensky", "TEL": "305.673.2800", "URL": "http://smithandwollensky.com/locations-2/miami-beach/?menu=miami-beach", "ADDRESS1": "1 Washington Ave", "ADDRESS2": null, "CITY": "Miami Beach", "ZIP": 33139 }, "geometry": { "type": "Point", "coordinates": [ -80.13394, 25.765903 ] } },	
{ "type": "Feature", "properties": { "NAME": "Joe's Stone Crab", "TEL": "305.673.0365", "URL": "joesstonecrab.com", "ADDRESS1": "11 Washington Ave", "ADDRESS2": null, "CITY": "Miami Beach", "ZIP": 33139 }, "geometry": { "type": "Point", "coordinates": [ -80.135039, 25.768854 ] } },	
{ "type": "Feature", "properties": { "NAME": "A Fish Called Avalon", "TEL": "305.532.1727", "URL": "afishcalledavalon.com", "ADDRESS1": "700 Ocean Drive", "ADDRESS2": null, "CITY": "Miami Beach", "ZIP": 33139 }, "geometry": { "type": "Point", "coordinates": [ -80.131709, 25.776958 ] } },	
{ "type": "Feature", "properties": { "NAME": "WD555", "TEL": "305.672.6161", "URL": "wd555usa.com", "ADDRESS1": "555 Jefferson Avenue", "ADDRESS2": null, "CITY": "Miami Beach", "ZIP": 33139 }, "geometry": { "type": "Point", "coordinates": [ -80.136907, 25.775564 ] } },	
{ "type": "Feature", "properties": { "NAME": "Juvia", "TEL": "305.763.8272", "URL": "juviamiami.com", "ADDRESS1": "1111 Lincoln Road", "ADDRESS2": null, "CITY": "Miami Beach", "ZIP": 33139 }, "geometry": { "type": "Point", "coordinates": [-80.141003,25.791907 ] } },
{ "type": "Feature", "properties": { "NAME": "Bocce Ristorante", "TEL": "786.245.6211", "URL": "bocceristorante.com", "ADDRESS1": "3252 NE 1st Avenue #107", "ADDRESS2": null, "CITY": "Miami", "ZIP": 33137 }, "geometry": { "type": "Point", "coordinates": [ -80.193092, 25.807599 ] } },
{ "type": "Feature", "properties": { "NAME": "Novecento", "TEL": "305.576.7447", "URL": "novecento.com", "ADDRESS1": "3201 N Miami Avenue #116", "ADDRESS2": null, "CITY": "Miami", "ZIP": 33127 }, "geometry": { "type": "Point", "coordinates": [ -80.194571, 25.808025 ] } },
{ "type": "Feature", "properties": { "NAME": "Baru Urbano", "TEL": "786.502.3497", "URL": "barurbano.com", "ADDRESS1": "3252 NE 1st Ave #124", "ADDRESS2": null, "CITY": "Miami", "ZIP": 33137 }, "geometry": { "type": "Point", "coordinates": [ -80.193691, 25.806910 ] } },
{ "type": "Feature", "properties": { "NAME": "Sugar Cane Raw Bar Grill", "TEL": "786.369.0353", "URL": "sugarcanerawbargrill.com", "ADDRESS1": "3252 NE 1st Avenue", "ADDRESS2": null, "CITY": "Miami", "ZIP": 33137 }, "geometry": { "type": "Point", "coordinates": [ -80.193302, 25.806915 ] } },
{ "type": "Feature", "properties": { "NAME": "The Cheese Course", "TEL": "786.220.6681", "URL": "thecheesecourse.com", "ADDRESS1": "3451 NE 1 Avenue #100", "ADDRESS2": null, "CITY": "Miami", "ZIP": 33137 }, "geometry": { "type": "Point", "coordinates": [ -80.192094, 25.809634 ] } },
{ "type": "Feature", "properties": { "NAME": "Midtown Oyster Bar", "TEL": "786.220.2070", "URL": "midtownoysterbar.com", "ADDRESS1": "3301 NE 1st Avenue, Suite 103-1", "ADDRESS2": null, "CITY": "Miami", "ZIP": 33137 }, "geometry": { "type": "Point", "coordinates": [ -80.192723, 25.807847 ] } },
{ "type": "Feature", "properties": { "NAME": "Michael's Genuine Food & Drink", "TEL": "305.573.5550", "URL": "michaelsgenuine.com", "ADDRESS1": "130 NE 40th Street", "ADDRESS2": null, "CITY": "Miami", "ZIP": 33137 }, "geometry": { "type": "Point", "coordinates": [ -80.192702, 25.813206 ] } },
{ "type": "Feature", "properties": { "NAME": "The Cypress Room", "TEL": "305.520.5197", "URL": "thecypressroom.com", "ADDRESS1": "3620 NE 2nd Avenue", "ADDRESS2": null, "CITY": "Miami", "ZIP": 33137 }, "geometry": { "type": "Point", "coordinates": [ -80.191513, 25.811050 ] } },
{ "type": "Feature", "properties": { "NAME": "Blackbrick Chinese", "TEL": "305.573.8886", "URL": "midtownchinese.com", "ADDRESS1": "3451 NE 1st Avenue", "ADDRESS2": null, "CITY": "Miami", "ZIP": 33137 }, "geometry": { "type": "Point", "coordinates": [ -80.192080, 25.809459 ] } },
{ "type": "Feature", "properties": { "NAME": "Harry's Pizzeria", "TEL": "786.275.4963", "URL": "harryspizzeria.tumblr.com", "ADDRESS1": "3918 N Miami Avenue", "ADDRESS2": null, "CITY": "Miami", "ZIP": 33127 }, "geometry": { "type": "Point", "coordinates": [ -80.195698, 25.812853 ] } },
{ "type": "Feature", "properties": { "NAME": "Proof", "TEL": "786.536.9562", "URL": "proofpizza.com", "ADDRESS1": "3328 N Miami Avenue", "ADDRESS2": null, "CITY": "Miami", "ZIP": 33127 }, "geometry": { "type": "Point", "coordinates": [ -80.195484, 25.808075 ] } },
{ "type": "Feature", "properties": { "NAME": "Joey's Italian Cafe", "TEL": "305.438.0488", "URL": "joeyswynwood.com", "ADDRESS1": "2506 NW 2nd Avenue", "ADDRESS2": null, "CITY": "Miami", "ZIP": 33127 }, "geometry": { "type": "Point", "coordinates": [ -80.199228, 25.800906 ] } },
{ "type": "Feature", "properties": { "NAME": "Pride and Joy", "TEL": "305.456.9548", "URL": "https://www.facebook.com/PrideAndJoyBBQ", "ADDRESS1": "2800 N Miami Avenue", "ADDRESS2": null, "CITY": "Miami", "ZIP": 33127 }, "geometry": { "type": "Point", "coordinates": [ -80.195291, 25.803276 ] } },
{ "type": "Feature", "properties": { "NAME": "Prohibition", "TEL": "305.438.9199", "URL": "prohibitionmiami.com", "ADDRESS1": "3404 N Miami Ave", "ADDRESS2": null, "CITY": "Miami", "ZIP": 33127 }, "geometry": { "type": "Point", "coordinates": [ -80.195389, 25.808395 ] } },
{ "type": "Feature", "properties": { "NAME": "R House", "TEL": "305.576.0201", "URL": "rhousewynwood.com", "ADDRESS1": "2727 NW 2nd Avenue", "ADDRESS2": null, "CITY": "Miami", "ZIP": 33127 }, "geometry": { "type": "Point", "coordinates": [ -80.198988, 25.802714 ] } },
{ "type": "Feature", "properties": { "NAME": "Wynwood Kitchen & Bar", "TEL": "305.722.8959", "URL": "wynwoodkitchenandbar.com", "ADDRESS1": "2550 NW 2nd Avenue", "ADDRESS2": null, "CITY": "Miami", "ZIP": 33127 }, "geometry": { "type": "Point", "coordinates": [ -80.199322, 25.801352 ] } },
{ "type": "Feature", "properties": { "NAME": "Kush", "TEL": "305.576.4500", "URL": "kushwynwood.com", "ADDRESS1": "2003 N Miami Avenue", "ADDRESS2": null, "CITY": "Wynwood", "ZIP": 33127 }, "geometry": { "type": "Point", "coordinates": [ -80.194676, 25.795798 ] } },
{ "type": "Feature", "properties": { "NAME": "Gigi's", "TEL": "305.573.1520", "URL": "giginow.com", "ADDRESS1": "3470 N Miami Avenue", "ADDRESS2": null, "CITY": "Miami", "ZIP": 33127 }, "geometry": { "type": "Point", "coordinates": [ -80.195441, 25.809577 ] } },
{ "type": "Feature", "properties": { "NAME": "Zak the Baker", "TEL": "786.347.7100", "URL": "zakthebaker.com", "ADDRESS1": "405 NW 26th Street", "ADDRESS2": null, "CITY": "Miami", "ZIP": 33127 }, "geometry": { "type": "Point", "coordinates": [ -80.202074, 25.801576 ] } },
{ "type": "Feature", "properties": { "NAME": "Mignonette", "TEL": "305.374.4635", "URL": "mignonettemiami.com", "ADDRESS1": "210 NE 18th Street", "ADDRESS2": null, "CITY": "Miami", "ZIP": 33132 }, "geometry": { "type": "Point", "coordinates": [ -80.190476, 25.793305  ] } },
{ "type": "Feature", "properties": { "NAME": "Books & Books at the Arsht", "TEL": "786.405.1745", "URL": "http://www.arshtcenter.org/Visit/Cafe-Books-Books/", "ADDRESS1": "1300 Biscayne Boulevard", "ADDRESS2": null, "CITY": "Miami", "ZIP": 33132 }, "geometry": { "type": "Point", "coordinates": [ -80.189372, 25.787381 ] } },
{ "type": "Feature", "properties": { "NAME": "Zuma", "TEL": "305.577.0277", "URL": "zumarestaurantmiami.com", "ADDRESS1": "270 Biscayne Boulevard Way", "ADDRESS2": null, "CITY": "Miami", "ZIP": 33131 }, "geometry": { "type": "Point", "coordinates": [ -80.189559, 25.770551 ] } },
{ "type": "Feature", "properties": { "NAME": "Il Gabbiano", "TEL": "305.373.0063", "URL": "ilgabbianomiami.com", "ADDRESS1": "335 S Biscayne Blvd", "ADDRESS2": null, "CITY": "Miami", "ZIP": 33131 }, "geometry": { "type": "Point", "coordinates": [ -80.185218, 25.771631 ] } },
{ "type": "Feature", "properties": { "NAME": "Capital Grille", "TEL": "305.374.4500", "URL": "thecapitalgrille.com", "ADDRESS1": "444 Brickell Avenue", "ADDRESS2": null, "CITY": "Miami", "ZIP": 33131 }, "geometry": { "type": "Point", "coordinates": [ -80.190273, 25.769532 ] } },
{ "type": "Feature", "properties": { "NAME": "Coya", "TEL": "305.415.9990", "URL": "coyarestaurant.com/miami", "ADDRESS1": "999 Brickell Avenue", "ADDRESS2": null, "CITY": "Miami", "ZIP": 33131 }, "geometry": { "type": "Point", "coordinates": [ -80.190509, 25.763887 ] } },
{ "type": "Feature", "properties": { "NAME": "Tamarina", "TEL": "305.579.1888", "URL": "tamarinarestaurants.com", "ADDRESS1": "600 Brickell Avenue", "ADDRESS2": null, "CITY": "Miami", "ZIP": 33131 }, "geometry": { "type": "Point", "coordinates": [ -80.190685, 25.767673 ] } },
{ "type": "Feature", "properties": { "NAME": "Seaspice Miami", "TEL": "305.440.4200", "URL": "seaspicemiami.com", "ADDRESS1": "422 NW North River Drive", "ADDRESS2": null, "CITY": "Miami", "ZIP": 33128 }, "geometry": { "type": "Point", "coordinates": [ -80.204684, 25.777713 ] } },
{ "type": "Feature", "properties": { "NAME": "Casablanca on the Bay", "TEL": "305.371.4930", "URL": "casablancaonthebay.com", "ADDRESS1": "1717 N Bayshore Drive #200", "ADDRESS2": null, "CITY": "Miami", "ZIP": 33132 }, "geometry": { "type": "Point", "coordinates": [ -80.185558, 25.791550 ] } },
{ "type": "Feature", "properties": { "NAME": "Garcia's Sea Food Grill", "TEL": "305.375.0765", "URL": "garciasseafoodgrill.com", "ADDRESS1": "398 NW North River Drive", "ADDRESS2": null, "CITY": "Miami", "ZIP": 33128 }, "geometry": { "type": "Point", "coordinates": [ -80.203734, 25.777399 ] } },
{ "type": "Feature", "properties": { "NAME": "The River Seafood¬†Oyster Bar", "TEL": "305.530.1915", "URL": "therivermiami.com", "ADDRESS1": "650 S Miami Avenue", "ADDRESS2": null, "CITY": "Miami", "ZIP": 33131 }, "geometry": { "type": "Point", "coordinates": [ -80.193467, 25.767498 ] } },
{ "type": "Feature", "properties": { "NAME": "Toro Toro Miami", "TEL": "305.372.4710", "URL": "torotoromiami.com", "ADDRESS1": "100 Chopin Plaza", "ADDRESS2": null, "CITY": "Miami", "ZIP": 33132 }, "geometry": { "type": "Point", "coordinates": [ -80.185336, 25.772558 ] } }
]
}