{
"type": "FeatureCollection",
"crs": { "type": "name", "properties": { "name": "urn:ogc:def:crs:OGC:1.3:CRS84" } },
                                                                                
"features": [
{ "type": "Feature", "properties": { "NAME": "Kroma Gallery", "TEL": "305.446.5150", "URL": "www.kromamiami.com", "ADDRESS1": "3670 Grand Avenue", "ADDRESS2": null, "CITY": "Coconut Grove", "ZIP": 33133 }, "geometry": { "type": "Point", "coordinates": [ -80.252996, 25.727588  ] } },
{ "type": "Feature", "properties": { "NAME": "Little Haiti Cultural Center", "TEL": "305.960.2969", "URL": "www.littlehaiticulturalcenter.com", "ADDRESS1": "212 NE 59 Terrace, Miami, Fl 33137", "ADDRESS2": null, "CITY": "Miami", "ZIP": 33137 }, "geometry": { "type": "Point", "coordinates": [ -80.191310, 25.830387  ] } },
{ "type": "Feature", "properties": { "NAME": "Yeelen Art Gallery", "TEL": "954.235.4758", "URL": "www.yeelenart.com", "ADDRESS1": "294 NW 54 Street", "ADDRESS2": null, "CITY": "Miami", "ZIP": 33137 }, "geometry": { "type": "Point", "coordinates": [ -80.201863, 25.824827 ] } },
{ "type": "Feature", "properties": { "NAME": "The Caribbean Marketplace", "TEL": "", "URL": "", "ADDRESS1": "5925 NW 2 Avenue", "ADDRESS2": null, "CITY": "Miami", "ZIP": 33137 }, "geometry": { "type": "Point", "coordinates": [ -80.201863, 25.824827 ] } },
{ "type": "Feature", "properties": { "NAME": "Chef Creole", "TEL": "305.754.2223", "URL": "www.muce305.com", "ADDRESS1": "200 NW 54 Street", "ADDRESS2": null, "CITY": "Miami", "ZIP": 33127 }, "geometry": { "type": "Point", "coordinates": [ -80.200256, 25.824914  ] } },
{ "type": "Feature", "properties": { "NAME": "Viernes Culturales Futurama Building", "TEL": "305.643.5500", "URL": "http://viernesculturales.org/mainvc/", "ADDRESS1": "1637 SW 8 St., Miami, FL 33127", "ADDRESS2": null, "CITY": "Miami", "ZIP": 33127 }, "geometry": { "type": "Point", "coordinates": [ -80.221644, 25.765836  ] } },
{ "type": "Feature", "properties": { "NAME": "Arts and Recreation Center", "TEL": "305.687.3545", "URL": "www.opalockaart.com", "ADDRESS1": "675 Ali Baba Avenue", "ADDRESS2": null, "CITY": "Opa-Locka", "ZIP": 33054 }, "geometry": { "type": "Point", "coordinates": [ -80.251916, 25.901287 ] } },
{ "type": "Feature", "properties": { "NAME": "The Black Archives Lyric Theater", "TEL": "786.708.4610", "URL": "http://www.bahlt.org/", "ADDRESS1": "819 NW 2 Avenue", "ADDRESS2": null, "CITY": "Miami", "ZIP": 33136 }, "geometry": { "type": "Point", "coordinates": [ -80.197763, 25.782078 ] } },
{ "type": "Feature", "properties": { "NAME": "Historic Ward Cultural Tourist Gallery", "TEL": "", "URL": "", "ADDRESS1": "249 NW 9 Street", "ADDRESS2": null, "CITY": "Miami", "ZIP": 33136 }, "geometry": { "type": "Point", "coordinates":   [ -80.197763, 25.782078 ]} },
{ "type": "Feature", "properties": { "NAME": "Betty Ferguson Recreational Complex", "TEL": "786.279.1222", "URL": "www.afropolis.us", "ADDRESS1": "3000 NW 199 Street", "ADDRESS2": null, "CITY": "Miami Gardens", "ZIP": 33056 }, "geometry": { "type": "Point", "coordinates": [ -80.252182, 25.954397 ] } },
{ "type": "Feature", "properties": { "NAME": "Museum of Contemporary Art", "TEL": "305.893.6211", "URL": "http://mocanomi.org/", "ADDRESS1": "770 NE 125 Street", "ADDRESS2": null, "CITY": "Miami", "ZIP": 33161 }, "geometry": { "type": "Point", "coordinates": [ -80.182965, 25.889711 ] } },
{ "type": "Feature", "properties": { "NAME": "Thunder & Lightening Mural", "TEL": "", "URL": "", "ADDRESS1": "3275 NW 79 Street", "ADDRESS2": null, "CITY": "Miami", "ZIP": 33142 }, "geometry": { "type": "Point", "coordinates":  [ -80.182965, 25.889711 ]} },
{ "type": "Feature", "properties": { "NAME": "African Heritage Cultural Arts Center", "TEL": "305.638.6771", "URL": "https://www.ahcacmiami.org/", "ADDRESS1": "6161 NW 22 Avenue", "ADDRESS2": null, "CITY": "Miami", "ZIP": 33142 }, "geometry": { "type": "Point", "coordinates": [ -80.232758, 25.831058  ] } },
{ "type": "Feature", "properties": { "NAME": "N'Namdi Contemporary Fine Art Gallery", "TEL": "786.332.4736", "URL": "http://nnamdicontemporary.com/", "ADDRESS1": "177 NW 23 Street", "ADDRESS2": null, "CITY": "Miami", "ZIP": 33127 }, "geometry": { "type": "Point", "coordinates": [ -80.198809, 25.799254 ] } },
{ "type": "Feature", "properties": { "NAME": "All Soul's Episcopal Center", "TEL": "305.520.5410", "URL": "www.allsoulsmb.org", "ADDRESS1": "4025 Pine Tree Drive", "ADDRESS2": null, "CITY": "Miami Beach", "ZIP": 33139 }, "geometry": { "type": "Point", "coordinates": [ -80.126049, 25.813047 ] } },
{ "type": "Feature", "properties": { "NAME": "History Miami Museum", "TEL": "305.375.1492", "URL": "www.historymiami.org", "ADDRESS1": "101 West Flagler Street", "ADDRESS2": null, "CITY": "Miami", "ZIP": 33130 }, "geometry": { "type": "Point", "coordinates": [ -80.196287, 25.774537 ] } }
]
}