{
"type": "FeatureCollection",
"crs": { "type": "name", "properties": { "name": "urn:ogc:def:crs:OGC:1.3:CRS84" } },
                                                                                
"features": [
{ "type": "Feature", "properties": { "NAME": "Amato Opera Company", "TEL": "(212) 228-8200", "URL": "http:\/\/www.amato.org\/", "ADDRESS1": "319 Bowery", "ADDRESS2": null, "CITY": "New York", "ZIP": 10003.000000 }, "geometry": { "type": "Point", "coordinates": [ -73.991845397845083, 40.725323659285749 ] } },
{ "type": "Feature", "properties": { "NAME": "American Composers Orchestra", "TEL": "(212) 977-8495", "URL": "http:\/\/www.americancomposers.org\/", "ADDRESS1": "1775 Broadway", "ADDRESS2": "Suite 525", "CITY": "New York", "ZIP": 10019.000000 }, "geometry": { "type": "Point", "coordinates": [ -73.982243748254064, 40.766906276154359 ] } },
{ "type": "Feature", "properties": { "NAME": "American Symphony Orchestra", "TEL": "(212) 581-1365", "URL": "http:\/\/www.americanorchestras.org\/", "ADDRESS1": "850 Seventh Avenue", "ADDRESS2": "Suite 503", "CITY": "New York", "ZIP": 10018.000000 }, "geometry": { "type": "Point", "coordinates": [ -73.981455100518389, 40.764050141146292 ] } },
{ "type": "Feature", "properties": { "NAME": "Bargemusic", "TEL": "(718) 624-2083", "URL": "http:\/\/www.bargemusic.org\/", "ADDRESS1": "Fulton Ferry Landing", "ADDRESS2": null, "CITY": "Brooklyn", "ZIP": 11201.000000 }, "geometry": { "type": "Point", "coordinates": [ -73.995277053348005, 40.703133545999044 ] } },
{ "type": "Feature", "properties": { "NAME": "Brooklyn Philharmonic", "TEL": "(718) 622-5555", "URL": "http:\/\/www.brooklynphilharmonic.org\/", "ADDRESS1": "189 Montague Street", "ADDRESS2": "BAM Opera House", "CITY": "Brooklyn", "ZIP": 11201.000000 }, "geometry": { "type": "Point", "coordinates": [ -73.991666903298622, 40.694258181751572 ] } },
{ "type": "Feature", "properties": { "NAME": "Chamber Music Society of Lincoln Center - Alice Tully Hall", "TEL": "(212) 875-5775", "URL": "http:\/\/www.chambermusicsociety.org\/?gclid=CMuUrK6Z950CFchn5QodfnSIpw", "ADDRESS1": "60 Lincoln Center Plaza", "ADDRESS2": "Alice Tully Hall", "CITY": "New York", "ZIP": 10023.000000 }, "geometry": { "type": "Point", "coordinates": [ -73.982585917887931, 40.773482797564903 ] } },
{ "type": "Feature", "properties": { "NAME": "Dicapo Opera Theatre", "TEL": "(212) 288-9438", "URL": "http:\/\/www.dicapo.com\/", "ADDRESS1": "184 East 76th Street", "ADDRESS2": null, "CITY": "New York", "ZIP": 10021.000000 }, "geometry": { "type": "Point", "coordinates": [ -73.959514663027662, 40.772495817681595 ] } },
{ "type": "Feature", "properties": { "NAME": "Jazz at Lincoln Center", "TEL": "(212) 258-9800", "URL": "http:\/\/www.jalc.org\/", "ADDRESS1": "Time Warner Center", "ADDRESS2": null, "CITY": "New York", "ZIP": 10023.000000 }, "geometry": { "type": "Point", "coordinates": [ -73.982689736827737, 40.768840361423877 ] } },
{ "type": "Feature", "properties": { "NAME": "Lincoln Center - Avery Fisher Hall", "TEL": "(866) 809-4709", "URL": "http:\/\/new.lincolncenter.org\/live\/", "ADDRESS1": "10 Lincoln Center Plaza", "ADDRESS2": null, "CITY": "New York", "ZIP": 10023.000000 }, "geometry": { "type": "Point", "coordinates": [ -73.983152132134506, 40.772620795721288 ] } },
{ "type": "Feature", "properties": { "NAME": "Frederick P. Rose Hall: Rose Theater - Lincoln Center", "TEL": "(212) 258-9800", "URL": "http:\/\/www.lincolncenter.org\/load_screen.asp?screen=visitorinfo_accessibility_frh", "ADDRESS1": "Time Warner Center", "ADDRESS2": null, "CITY": "New York", "ZIP": 10023.000000 }, "geometry": { "type": "Point", "coordinates": [ -73.982664555501628, 40.768614894013346 ] } },
{ "type": "Feature", "properties": { "NAME": "Metropolitan Opera House - Lincoln Center", "TEL": "(866) 809-4709", "URL": "http:\/\/www.metoperafamily.org\/metopera\/", "ADDRESS1": "30 Lincoln Center Plaza", "ADDRESS2": null, "CITY": "New York", "ZIP": 10023.000000 }, "geometry": { "type": "Point", "coordinates": [ -73.984792061045255, 40.772880253363645 ] } },
{ "type": "Feature", "properties": { "NAME": "New York State Theater - David H. Koch Theater - Lincoln Center", "TEL": "(212) 875-5000", "URL": "http:\/\/www.lincolncenter.org\/load_screen.asp?screen=visitorinfo_hallinfo_nyst", "ADDRESS1": "20 Lincoln Center Plz", "ADDRESS2": null, "CITY": "New York", "ZIP": 10023.000000 }, "geometry": { "type": "Point", "coordinates": [ -73.983639216629015, 40.771957945876203 ] } },
{ "type": "Feature", "properties": { "NAME": "New York City Opera", "TEL": "(212) 870-5630", "URL": "http:\/\/www.nycopera.com\/", "ADDRESS1": "20 Lincoln Center Plz", "ADDRESS2": null, "CITY": "New York", "ZIP": 10023.000000 }, "geometry": { "type": "Point", "coordinates": [ -73.983872249640427, 40.771631739194568 ] } },
{ "type": "Feature", "properties": { "NAME": "New York City Center", "TEL": "(212) 769-1000", "URL": "http:\/\/www.nycitycenter.org\/", "ADDRESS1": "130 West 56th Street", "ADDRESS2": null, "CITY": "New York", "ZIP": 10019.000000 }, "geometry": { "type": "Point", "coordinates": [ -73.979379879005037, 40.76394437155389 ] } },
{ "type": "Feature", "properties": { "NAME": "New York Grand Opera", "TEL": "(212) 245-8837", "URL": "http:\/\/www.newyorkgrandopera.org\/", "ADDRESS1": "Central Park, Naumberg Bandshall", "ADDRESS2": null, "CITY": "New York", "ZIP": 0.000000 }, "geometry": { "type": "Point", "coordinates": [ -73.971012192327265, 40.772674634366361 ] } },
{ "type": "Feature", "properties": { "NAME": "New York Philharmonic", "TEL": "(212) 874-9021", "URL": "http:\/\/nyphil.org\/", "ADDRESS1": "10 Lincoln Center Plaza", "ADDRESS2": "Avery Fisher Hall at Lincoln Center", "CITY": "New York", "ZIP": 10023.000000 }, "geometry": { "type": "Point", "coordinates": [ -73.982920391132765, 40.772963717154454 ] } },
{ "type": "Feature", "properties": { "NAME": "Opera Company of Brooklyn", "TEL": "(212) 567-3283", "URL": "http:\/\/www.operabrooklyn.com\/", "ADDRESS1": "33 Indian Road", "ADDRESS2": null, "CITY": "New York", "ZIP": 10034.000000 }, "geometry": { "type": "Point", "coordinates": [ -73.918437371646363, 40.872635109970837 ] } },
{ "type": "Feature", "properties": { "NAME": "Regina Opera Company", "TEL": "(718) 232-3555", "URL": "http:\/\/www.reginaopera.org\/", "ADDRESS1": "1230 65th Street", "ADDRESS2": null, "CITY": "Brooklyn", "ZIP": 11219.000000 }, "geometry": { "type": "Point", "coordinates": [ -74.003152447787471, 40.626659328754734 ] } },
{ "type": "Feature", "properties": { "NAME": "Carnegie Hall", "TEL": "(212) 903-9600", "URL": "http:\/\/www.carnegiehall.org", "ADDRESS1": "Carnegie Hall", "ADDRESS2": null, "CITY": "New York", "ZIP": 10019.000000 }, "geometry": { "type": "Point", "coordinates": [ -73.97991704963944, 40.76500696689682 ] } },
{ "type": "Feature", "properties": { "NAME": "Merkin Concert Hall at The Kaufman Center", "TEL": "(212) 501-3303", "URL": "http:\/\/kaufman-center.org\/merkin-concert-hall", "ADDRESS1": "129 West 67th Street", "ADDRESS2": null, "CITY": "New York", "ZIP": 10023.000000 }, "geometry": { "type": "Point", "coordinates": [ -73.982993956353539, 40.775253382770686 ] } }
]
}
